City_ID,City,Lat,Lng,Max Temp,Humidity,Cloudiness,Wind Speed,Country,Date
0,papatowai,-46.5619,169.4708,11.39,89,100,1.92,NZ,1699815329
1,grytviken,-54.2811,-36.5092,5.46,81,100,2.51,GS,1699815329
2,albany,42.6001,-73.9662,6.0,55,10,1.34,US,1699815207
3,invercargill,-46.4,168.35,11.68,95,99,2.68,NZ,1699815329
4,port alfred,-33.5906,26.891,13.99,85,6,0.89,ZA,1699815329
5,brookings,44.3114,-96.7984,14.14,44,0,10.8,US,1699815330
6,isangel,-19.55,169.2667,16.06,88,100,2.06,VU,1699815330
7,edinburgh of the seven seas,-37.0676,-12.3116,14.22,81,4,8.38,SH,1699815330
8,bilibino,68.0546,166.4372,-13.18,89,100,3.47,RU,1699815330
9,inebolu,41.9747,33.7608,16.41,71,100,1.41,TR,1699815331
10,college,64.8569,-147.8028,-7.03,79,100,0.0,US,1699815331
11,ancud,-41.8697,-73.8203,9.81,51,53,4.8,CL,1699815331
12,tiksi,71.6872,128.8694,-15.49,90,100,7.38,RU,1699815331
13,adamstown,-25.066,-130.1015,22.71,81,100,7.59,PN,1699815332
14,waddan,29.1614,16.139,21.6,51,0,3.85,LY,1699815332
15,padangsidempuan,1.3667,99.2667,22.5,98,100,0.37,ID,1699815332
16,carnarvon,-24.8667,113.6333,20.65,83,23,3.37,AU,1699815332
17,avarua,-21.2078,-159.775,22.03,64,75,2.57,CK,1699815333
18,dampit,-8.2116,112.7493,21.3,97,35,1.06,ID,1699815333
19,new norfolk,-42.7826,147.0587,8.72,90,16,1.67,AU,1699815333
20,port-aux-francais,-49.35,70.2167,6.25,93,100,13.54,TF,1699815333
21,san antonio de pale,-1.4014,5.6325,26.43,84,100,5.4,GQ,1699815333
22,kodiak,57.79,-152.4072,0.73,60,0,2.57,US,1699815334
23,bredasdorp,-34.5322,20.0403,14.53,76,0,1.64,ZA,1699815334
24,puerto madryn,-42.7692,-65.0385,17.25,17,29,10.04,AR,1699815138
25,port mathurin,-19.6833,63.4167,25.23,80,0,2.25,MU,1699815320
26,selfoss,63.9331,-20.9971,3.36,72,100,6.83,IS,1699815334
27,ouddorp,51.8117,3.9347,7.77,93,83,5.63,NL,1699815334
28,saipan,15.1355,145.701,28.39,78,20,6.17,MP,1699815335
29,fort bragg,35.139,-79.006,17.58,54,0,5.66,US,1699815335
30,tekman,39.6436,41.5078,4.95,76,26,2.08,TR,1699815335
31,ust-nera,64.5667,143.2,-24.26,99,100,0.95,RU,1699815335
32,west island,-12.1568,96.8225,25.99,89,40,4.12,CC,1699815336
33,punta arenas,-53.15,-70.9167,14.06,41,75,12.86,CL,1699815336
34,sault ste. marie,46.5168,-84.3333,8.31,68,100,5.66,CA,1699815256
35,crane,31.3974,-102.3501,15.46,68,100,4.75,US,1699815336
36,cabo san lucas,22.8909,-109.9124,29.78,59,12,2.24,MX,1699815336
37,port elizabeth,-33.918,25.5701,16.29,79,0,4.63,ZA,1699815337
38,ushuaia,-54.8,-68.3,10.79,50,0,2.06,AR,1699815337
39,zhanaozen,43.3,52.8,10.96,33,10,9.21,KZ,1699815337
40,hawaiian paradise park,19.5933,-154.9731,26.55,77,47,0.45,US,1699815337
41,ribeira grande,38.5167,-28.7,21.22,88,75,11.18,PT,1699815337
42,waitangi,-43.9535,-176.5597,13.23,81,100,2.68,NZ,1699815338
43,puerto el triunfo,13.2833,-88.55,31.13,65,9,3.28,SV,1699815338
44,rebrikha,53.0733,82.3408,4.13,87,97,7.52,RU,1699815338
45,hasaki,35.7333,140.8333,8.22,82,79,10.68,JP,1699815338
46,padang,-0.9492,100.3543,25.03,91,98,1.13,ID,1699815057
47,malabar,-33.9667,151.25,18.84,77,75,5.66,AU,1699815338
48,blackmans bay,-43.0167,147.3167,8.07,78,9,0.89,AU,1699815339
49,tolanaro,-25.0319,46.9987,23.04,73,0,9.26,MG,1699815339
50,sao joao da barra,-21.6403,-41.0511,38.05,76,56,5.09,BR,1699815241
51,badger,64.8,-147.5333,-7.07,79,100,0.0,US,1699815339
52,mikhaylovsk,45.1283,42.0256,12.12,71,40,3.13,RU,1699815339
53,utrik,11.2278,169.8474,27.92,80,100,8.73,MH,1699815339
54,odesskoye,54.2111,72.9651,4.02,93,100,4.29,RU,1699815340
55,chonchi,-42.6128,-73.8092,12.29,47,92,1.16,CL,1699815340
56,praia da vitoria,38.7333,-27.0667,21.14,83,40,8.28,PT,1699815341
57,manokwari,-0.8667,134.0833,25.66,79,100,1.92,ID,1699815342
58,dalandzadgad,43.5708,104.425,-2.92,19,98,1.75,MN,1699815342
59,keflavik,64.0049,-22.5624,4.24,70,75,8.23,IS,1699815342
60,namibe,-15.1961,12.1522,21.78,78,99,1.49,AO,1699815046
61,kidal,18.4411,1.4078,27.96,9,0,4.51,ML,1699815342
62,pontianak,-0.0333,109.3333,23.99,94,75,1.03,ID,1699815343
63,stanley,54.868,-1.6985,6.54,92,40,2.57,GB,1699815085
64,margate,51.3813,1.3862,10.5,86,100,2.24,GB,1699815343
65,ilulissat,69.2167,-51.1,-9.99,57,100,1.03,GL,1699815343
66,yung shue wan,22.2333,114.1167,22.01,73,89,0.45,HK,1699815343
67,isafjordur,66.0755,-23.124,3.02,70,0,1.54,IS,1699815343
68,iqaluit,63.7506,-68.5145,-16.15,71,40,9.26,CA,1699815344
69,bonthe,7.5264,-12.505,26.99,84,89,3.71,SL,1699815344
70,masterton,-40.9597,175.6575,13.82,79,100,2.57,NZ,1699815344
71,atafu village,-8.5421,-172.5159,28.65,71,100,0.77,TK,1699815344
72,olyokminsk,60.3736,120.4264,-13.83,97,97,1.52,RU,1699815344
73,singkil,-7.9855,111.4161,24.91,88,34,1.88,ID,1699815344
74,longyearbyen,78.2186,15.6401,-1.09,59,75,4.63,SJ,1699815345
75,fale old settlement,-9.3852,-171.2468,28.65,72,100,0.98,TK,1699815345
76,moya,28.0906,-15.5883,19.07,75,98,3.03,ES,1699815345
77,bethel,41.3712,-73.414,7.23,57,0,0.89,US,1699815149
78,tura,25.5198,90.2201,18.28,86,0,1.67,IN,1699815345
79,baoying,33.2292,119.3092,2.22,39,3,3.77,CN,1699815346
80,conduaga,8.862,117.4893,26.08,82,49,1.11,PH,1699815346
81,la passe,45.5549,-0.8967,16.13,91,100,6.35,FR,1699815346
82,puerto baquerizo moreno,-0.9,-89.6,28.55,61,40,8.23,EC,1699815346
83,anadyr,64.75,177.4833,-0.72,92,20,7.0,RU,1699815346
84,udachny,66.4167,112.4,-16.51,95,100,2.61,RU,1699815346
85,lebu,-37.6167,-73.65,11.4,56,3,8.12,CL,1699815346
86,enewetak,11.3474,162.3373,28.01,78,100,9.0,MH,1699815347
87,necochea,-38.5473,-58.7368,13.73,43,100,7.34,AR,1699815347
88,trincomalee,8.5711,81.2335,26.56,85,100,5.83,LK,1699815347
89,sola,-13.8833,167.55,24.37,94,100,7.72,VU,1699815347
90,kharp,66.8014,65.8081,-11.03,90,12,3.78,RU,1699815347
91,puerto natales,-51.7236,-72.4875,12.25,50,75,8.75,CL,1699815348
92,aripuana,-9.1667,-60.6333,34.96,41,67,0.91,BR,1699815348
93,margaret river,-33.95,115.0667,14.09,86,100,5.43,AU,1699815348
94,las lomitas,-24.7096,-60.593,46.25,16,89,5.74,AR,1699815348
95,taroa,8.7058,171.2275,28.21,81,99,8.28,MH,1699815092
96,puerto armuelles,8.2833,-82.8667,30.99,84,100,3.13,PA,1699815348
97,essaouira,31.5125,-9.77,24.72,41,40,0.51,MA,1699815349
98,point pedro,9.8167,80.2333,27.95,74,100,7.49,LK,1699815349
99,inhambane,-23.865,35.3833,25.0,83,20,2.24,MZ,1699815349
100,iskateley,67.6803,53.1512,-8.32,94,16,2.68,RU,1699815349
101,egilsstadir,65.2653,-14.3948,-2.05,86,75,1.03,IS,1699815349
102,arica,-18.475,-70.3042,24.75,64,0,8.23,CL,1699815349
103,bergerac,44.8333,0.5,16.12,88,100,4.12,FR,1699815349
104,san patricio,28.017,-97.5169,16.97,93,100,4.08,US,1699815350
105,karratha,-20.7377,116.8463,22.38,64,6,6.53,AU,1699815350
106,antofagasta,-23.65,-70.4,19.6,67,10,5.82,CL,1699815350
107,vila velha,-20.3297,-40.2925,32.97,73,0,6.69,BR,1699815255
108,howard springs,-12.497,131.047,26.95,80,84,2.11,AU,1699815350
109,novohrad-volynskyi,50.5941,27.6165,5.83,79,100,8.0,UA,1699815350
110,georgetown,5.4112,100.3354,27.97,89,20,1.03,MY,1699815068
111,olonkinbyen,70.9221,-8.7187,-3.18,67,98,2.64,SJ,1699815351
112,okhotsk,59.3833,143.3,-17.77,82,2,10.44,RU,1699815351
113,sosnovo-ozerskoye,52.5249,111.5418,-15.04,95,10,2.17,RU,1699815351
114,yuzhno-kurilsk,44.0306,145.8556,2.43,80,25,2.98,RU,1699815351
115,itaituba,-4.2761,-55.9836,35.09,46,20,3.6,BR,1699815351
116,praskoveya,44.7444,44.2031,13.35,71,100,1.58,RU,1699815351
117,vorkuta,67.5,64.0,-9.37,94,15,4.87,RU,1699815352
118,capim grosso,-11.3811,-40.0128,34.94,18,40,4.0,BR,1699815352
119,falam,22.9167,93.6833,12.66,97,7,0.45,MM,1699815352
120,vorgashor,67.5833,63.95,-9.51,94,18,5.05,RU,1699815352
121,babruysk,53.15,29.2333,4.04,96,100,7.48,BY,1699815352
122,yellowknife,62.456,-114.3525,-5.88,97,100,9.26,CA,1699815352
123,jamestown,42.097,-79.2353,8.9,49,0,1.34,US,1699815159
124,qaqortoq,60.7167,-46.0333,-5.86,83,2,0.8,GL,1699815352
125,spassk-dal'niy,44.5978,132.8211,-8.66,81,100,3.33,RU,1699815353
126,leua,48.2156,18.6071,5.83,78,6,1.13,SK,1699815353
127,arar,30.9753,41.0381,20.01,26,0,3.09,SA,1699815353
128,mont-dore,-22.2833,166.5833,23.33,99,100,3.97,NC,1699815353
129,katabu,-4.9333,122.5167,23.26,89,60,1.19,ID,1699815353
130,taguatinga,-12.3857,-46.5711,39.98,12,9,2.16,BR,1699815353
131,coquimbo,-29.9533,-71.3436,18.85,59,0,7.2,CL,1699815353
132,east london,-33.0153,27.9116,17.0,70,0,6.18,ZA,1699815354
133,bathsheba,13.2167,-59.5167,29.34,79,40,9.26,BB,1699815354
134,lihue,21.9789,-159.3672,26.58,80,75,8.75,US,1699815354
135,arkalyk,50.2486,66.9114,4.25,91,100,2.77,KZ,1699815354
136,kabalo,-6.05,26.9167,21.57,96,100,2.04,CD,1699815354
137,luderitz,-26.6481,15.1594,20.23,53,0,9.74,NA,1699815354
138,mpraeso,6.5932,-0.7346,24.76,69,1,1.38,GH,1699815354
139,antsiranana,-12.2787,49.2917,25.6,79,31,6.95,MG,1699815355
140,primero de mayo,-32.2552,-58.4228,23.08,85,100,2.03,AR,1699815355
141,saint croix,17.7397,-64.7388,32.25,74,20,9.26,VI,1699815355
142,hithadhoo,-0.6,73.0833,27.35,80,63,2.65,MV,1699815355
143,prince george,53.9166,-122.753,0.34,86,0,1.54,CA,1699815355
144,mount gambier,-37.8333,140.7667,6.95,95,37,0.47,AU,1699815355
145,pyapon,16.2833,95.6833,25.09,92,100,2.31,MM,1699815355
146,bowen,-20.0167,148.2333,21.89,79,57,3.97,AU,1699815086
147,thompson,55.7435,-97.8558,-1.91,93,100,2.06,CA,1699815356
148,kovernino,57.1253,43.8142,4.47,91,100,6.36,RU,1699815356
149,raduzhny,62.0961,77.475,-0.49,98,100,3.69,RU,1699815356
150,cordoba,-31.4135,-64.1811,21.47,24,0,8.75,AR,1699815326
151,wailua homesteads,22.0669,-159.378,26.24,84,75,8.75,US,1699815356
152,murzuq,25.9155,13.9184,22.55,24,0,3.95,LY,1699815356
153,nuuk,64.1835,-51.7216,-4.66,68,20,1.54,GL,1699815357
154,polyarnyy,69.1989,33.4478,-7.37,97,88,4.82,RU,1699815357
155,dongola,19.1667,30.4833,29.94,20,86,1.76,SD,1699815357
156,port lincoln,-34.7333,135.8667,12.73,83,57,5.02,AU,1699815357
157,komsomolets,53.7453,62.0708,5.23,84,100,1.27,KZ,1699815357
158,darnah,32.767,22.6367,21.34,79,65,3.18,LY,1699815318
159,aasiaat,68.7098,-52.8699,-13.26,84,99,3.28,GL,1699815358
160,klyuchi,52.2667,79.1667,5.36,85,99,4.91,RU,1699815358
161,mombetsu,44.3525,143.3525,-0.25,84,98,2.6,JP,1699815358
162,uturoa,-16.7333,-151.4333,27.11,81,12,4.12,PF,1699815358
163,zeya,53.75,127.2667,-3.62,42,15,4.13,RU,1699815358
164,gizo,-8.103,156.8419,27.23,78,100,5.43,SB,1699815358
165,portland,45.5234,-122.6762,12.41,88,100,4.63,US,1699815067
166,chegdomyn,51.1167,133.0167,-14.23,97,100,0.19,RU,1699815359
167,qui nhon,13.7667,109.2333,25.46,89,98,5.07,VN,1699815359
168,tual,-5.6667,132.75,27.84,79,67,5.31,ID,1699815196
169,puerto ayora,-0.7393,-90.3518,28.98,88,34,3.58,EC,1699815359
170,mersa matruh,31.3525,27.2453,22.11,68,40,1.54,EG,1699815359
171,xunchang,28.4543,104.715,9.27,86,100,1.2,CN,1699815359
172,lompoc,34.6391,-120.4579,26.99,38,12,5.81,US,1699815199
173,rouissat,31.9243,5.3502,22.04,37,0,0.0,DZ,1699815360
174,mokopane,-24.1944,29.0097,27.44,27,71,4.3,ZA,1699815260
175,bosaso,11.2842,49.1816,27.45,79,21,1.89,SO,1699815360
176,singarayakonda,15.25,80.0333,25.63,78,100,2.62,IN,1699815360
177,fort irwin,35.2627,-116.6848,15.9,9,4,2.33,US,1699815360
178,hilo,19.7297,-155.09,27.01,70,21,1.79,US,1699815360
179,ust'-talovka,50.5493,81.85,2.91,89,95,5.86,KZ,1699815361
180,vilyuchinsk,52.9306,158.4028,-2.26,83,56,3.1,RU,1699815361
181,rongelap,11.1635,166.8941,27.62,82,100,8.84,MH,1699815361
182,tippi,7.2,35.45,17.92,95,4,1.52,ET,1699815361
183,hermanus,-34.4187,19.2345,15.84,77,0,3.51,ZA,1699815340
184,ulsteinvik,62.3432,5.8487,4.06,74,0,3.13,NO,1699815361
185,koz'modem'yansk,56.3367,46.5711,4.2,89,100,7.9,RU,1699815361
186,broome,42.2506,-75.833,5.05,70,100,4.12,US,1699815362
187,weno,7.4515,151.8468,25.97,100,100,2.57,FM,1699815362
188,taltal,-25.4,-70.4833,20.01,62,19,4.01,CL,1699815362
189,banda aceh,5.5577,95.3222,26.45,82,100,2.9,ID,1699815362
190,novyy turtkul',41.55,61.0167,4.95,43,13,4.02,UZ,1699815363
191,el nido,11.1858,119.3956,28.0,78,21,5.39,PH,1699815363
192,minas de marcona,-15.2119,-75.1103,17.18,79,85,7.35,PE,1699815363
193,qarazhal,48.0078,70.7903,2.35,98,100,3.93,KZ,1699815364
194,tyukhtet,56.5389,89.3011,-1.44,92,100,2.3,RU,1699815364
195,aweil,8.7682,27.4002,29.35,51,44,0.85,SS,1699815364
196,kapa'a,22.0752,-159.319,26.99,84,75,8.75,US,1699815366
197,dudinka,69.4058,86.1778,-0.74,98,100,7.6,RU,1699815237
198,bucerias,20.75,-105.3333,31.1,74,100,1.14,MX,1699815366
199,mili,6.0815,171.735,28.74,79,100,8.1,MH,1699815367
200,hengchun,22.0042,120.7439,23.97,75,15,13.15,TW,1699815367
201,kyren,51.6828,102.1408,-6.7,70,74,1.34,RU,1699815367
202,susuman,62.7833,148.1667,-34.18,98,100,0.37,RU,1699815367
203,flying fish cove,-10.4217,105.6791,25.82,83,100,4.12,CX,1699815367
204,la peca,-5.6111,-78.435,31.17,48,68,2.17,PE,1699815368
205,najaf,31.9985,44.3398,20.88,37,100,0.0,IQ,1699815368
206,prince rupert,54.3161,-130.3201,6.83,71,100,7.2,CA,1699815368
207,happy valley-goose bay,53.3168,-60.3315,0.17,59,75,5.14,CA,1699815369
208,andergrove,-21.0833,149.1833,19.8,68,14,4.07,AU,1699815369
209,quimili,-27.6333,-62.4167,23.74,78,92,11.15,AR,1699815369
210,alice springs,-23.7,133.8833,23.75,64,75,2.57,AU,1699815369
211,pindushi,62.9152,34.58,-1.67,73,100,5.44,RU,1699815369
212,kandahar,31.0,65.75,14.06,31,6,1.71,AF,1699815370
213,khandyga,62.6667,135.6,-22.62,99,100,0.71,RU,1699815370
214,adrar,20.5022,-10.0711,25.35,10,5,3.0,MR,1699815370
215,timimoun,29.2639,0.231,25.21,27,0,2.06,DZ,1699815325
216,isabela,6.7085,121.9711,23.03,85,17,0.23,PH,1699815371
217,illapel,-31.6308,-71.1653,18.73,54,21,4.22,CL,1699815371
218,patrocinio,-18.9439,-46.9925,36.04,16,28,1.22,BR,1699815371
219,xinyuan,37.3,99.0,-7.53,31,0,2.89,CN,1699815371
220,le port,-20.9373,55.2919,22.0,87,29,1.23,RE,1699815372
221,katsuura,35.1333,140.3,11.56,86,18,6.18,JP,1699815372
222,mitu,1.1983,-70.1733,33.01,52,96,1.33,CO,1699815372
223,constantia,44.1833,28.65,6.5,42,100,5.64,RO,1699815172
224,walvis bay,-22.9575,14.5053,18.53,68,10,3.6,NA,1699815372
225,kitakami,39.2833,141.1167,2.62,93,96,1.64,JP,1699815373
226,kapuskasing,49.4169,-82.4331,1.05,86,100,6.69,CA,1699815373
227,zaragoza,41.6561,-0.8773,19.71,68,0,3.09,ES,1699815177
228,usman',52.0466,39.7288,10.05,83,82,8.05,RU,1699815373
229,st. john's,47.5649,-52.7093,1.2,82,75,6.17,CA,1699815089
230,mkushi,-13.6202,29.3939,20.8,77,97,3.23,ZM,1699815373
231,cekerek,40.0731,35.4947,15.33,42,100,2.11,TR,1699815374
232,eydhafushi,5.1033,73.0708,27.85,75,100,1.67,MV,1699815374
233,kilindoni,-7.9139,39.6668,26.83,80,100,2.81,TZ,1699815374
234,ust'-kulom,61.6864,53.6902,-0.79,99,100,1.44,RU,1699815374
235,koshki,54.2091,50.4677,3.03,74,100,6.95,RU,1699815374
236,port douglas,-16.4833,145.4667,22.8,78,43,3.58,AU,1699815375
237,naze,28.3667,129.4833,16.51,68,65,7.39,JP,1699815375
238,sigli,5.3848,95.9609,26.57,82,100,1.04,ID,1699815375
239,hamilton,39.1834,-84.5333,15.51,47,0,4.63,US,1699815375
240,mount pearl,47.5166,-52.7813,0.74,83,75,6.17,CA,1699815376
241,caleta de carquin,-11.0925,-77.6267,22.17,74,31,5.17,PE,1699815376
242,hatillo,18.4863,-66.8254,32.81,78,6,5.36,PR,1699815376
243,al artawiyah,26.5053,45.3444,23.84,30,100,3.44,SA,1699815376
244,glace bay,46.1969,-59.957,4.32,71,75,7.72,CA,1699815377
245,viedma,-40.8135,-62.9967,16.74,16,4,7.56,AR,1699815377
246,marsh harbour,26.5412,-77.0636,26.37,63,100,3.62,BS,1699815377
247,toliara,-23.35,43.6667,24.11,77,0,1.11,MG,1699815377
248,mar del plata,-38.0023,-57.5575,17.83,53,0,8.05,AR,1699815377
249,luang namtha,20.9497,101.4011,20.08,99,89,0.29,LA,1699815378
250,okha,53.5739,142.9478,-4.7,90,100,6.82,RU,1699815378
251,artesia,33.8658,-118.0831,29.85,17,0,3.09,US,1699815221
252,kununurra,-15.7667,128.7333,25.99,94,100,1.54,AU,1699815378
253,rawson,-43.3002,-65.1023,16.89,18,3,10.23,AR,1699815378
254,faro,37.0194,-7.9322,18.31,88,0,3.09,PT,1699815379
255,mahajanga,-15.7167,46.3167,29.01,74,20,4.12,MG,1699815379
256,muriti,-1.9833,32.9167,23.83,66,99,1.07,TZ,1699815379
257,sibiti,-3.6819,13.3499,21.66,95,100,0.21,CG,1699815379
258,ipameri,-17.7219,-48.1597,38.3,13,37,3.9,BR,1699815380
259,balcarce,-37.8462,-58.2552,15.46,49,100,2.24,AR,1699815380
260,boa vista,2.8197,-60.6733,33.99,43,40,5.14,BR,1699815380
261,tazovsky,67.4667,78.7,-4.39,95,100,6.27,RU,1699815380
262,arteche,12.2645,125.4048,26.18,88,100,2.08,PH,1699815380
263,zarah sharan,33.1467,68.7917,6.22,29,0,2.26,AF,1699815381
264,vila franca do campo,37.7167,-25.4333,19.23,95,100,8.23,PT,1699815381
265,floro,61.5996,5.0328,5.54,70,0,3.09,NO,1699815381
266,akjoujt,19.6969,-14.4164,28.01,12,2,2.12,MR,1699815381
267,queenstown,-31.8976,26.8753,11.69,71,0,2.3,ZA,1699815381
268,princeville,45.7668,-61.2985,4.22,83,100,3.6,CA,1699815382
269,talnakh,69.4865,88.3972,-2.66,95,100,5.26,RU,1699815382
270,uyuni,-20.4597,-66.825,18.75,17,49,6.04,BO,1699815382
271,liberal,37.0431,-100.921,18.58,25,0,0.0,US,1699815382
272,ponta delgada,37.7333,-25.6667,19.4,94,75,10.8,PT,1699815382
273,kapit,2.0167,112.9333,22.79,100,85,0.53,MY,1699815383
274,kumertau,52.7667,55.7833,1.28,86,100,2.8,RU,1699815383
275,antigonish,45.6169,-61.9986,4.9,86,100,1.79,CA,1699815383
276,bridgewater,44.3835,-64.5155,7.6,57,78,2.57,CA,1699815383
277,livramento do brumado,-13.6431,-41.8406,36.51,17,0,3.07,BR,1699815383
278,namie,37.4833,141.0,4.29,92,100,3.04,JP,1699815384
279,nongstoin,25.5167,91.2667,13.32,74,0,2.03,IN,1699815384
280,aktau,43.65,51.2,11.32,40,9,9.75,KZ,1699815384
281,makary,12.5717,14.4666,28.7,35,18,4.1,CM,1699815384
282,bandar abbas,27.1865,56.2808,21.99,68,0,2.06,IR,1699815384
283,tremonton,41.7119,-112.1655,15.49,48,26,0.89,US,1699815385
284,igarka,67.4667,86.5833,-0.59,98,100,6.47,RU,1699815385
285,lazaro cardenas,17.9583,-102.2,30.88,62,6,2.31,MX,1699815385
286,koungou,-12.7336,45.2042,28.84,74,40,2.06,YT,1699815385
287,chipinge,-20.1883,32.6236,19.95,56,63,2.79,ZW,1699815386
288,saldanha,-33.0117,17.9442,16.03,81,0,11.05,ZA,1699815386
289,mountain home,43.133,-115.6912,13.01,50,100,3.58,US,1699815386
290,kasungu,-13.0333,33.4833,23.59,64,33,3.76,MW,1699815386
291,chistopol',55.3631,50.6424,2.82,76,100,7.09,RU,1699815387
292,sitka,57.0531,-135.33,2.94,87,0,2.06,US,1699815387
293,picnic point,-33.971,151.0072,18.79,85,75,5.66,AU,1699815387
294,baran',54.4764,30.3181,1.48,96,100,7.57,BY,1699815388
295,gazli,40.1333,63.45,8.06,37,11,4.39,UZ,1699815388
296,punta gorda,26.9298,-82.0454,32.99,67,20,1.54,US,1699815238
297,whitehorse,60.7161,-135.0538,-1.57,86,100,4.63,CA,1699815165
298,macapa,0.0389,-51.0664,33.99,43,0,5.14,BR,1699815388
299,moyale,3.5167,39.0584,21.88,73,59,3.51,KE,1699815389
300,patterson,37.4716,-121.1297,19.45,35,93,3.94,US,1699815389
301,dokkum,53.3222,5.997,8.33,100,75,0.51,NL,1699815389
302,mpika,-11.8343,31.4529,18.68,83,99,1.59,ZM,1699815389
303,zubova polyana,54.0771,42.8372,8.4,89,100,8.75,RU,1699815389
304,parham,17.0968,-61.7705,28.83,74,75,6.17,AG,1699815389
305,holualoa,19.6228,-155.9522,24.88,77,20,3.09,US,1699815112
306,beihai,21.4833,109.1,17.08,85,100,9.88,CN,1699815390
307,narvik,68.4384,17.4272,-1.33,67,2,4.07,NO,1699815390
308,waingapu,-9.6567,120.2641,26.72,82,100,1.33,ID,1699815390
309,vizinga,61.0749,50.1031,-0.36,98,100,1.77,RU,1699815390
310,bikenibeu village,1.3673,173.1241,27.98,89,75,1.54,KI,1699815390
311,mukalla,14.5425,49.1242,27.01,70,0,2.1,YE,1699815391
312,carloforte,39.145,8.3058,19.54,71,22,10.07,IT,1699815391
313,poronaysk,49.2167,143.1167,-7.85,83,46,3.48,RU,1699815391
314,zanjan,36.6736,48.4787,13.02,34,95,1.56,IR,1699815391
315,conde,-7.2597,-34.9075,29.7,54,40,6.69,BR,1699815391
316,ishigaki,24.3448,124.1572,20.07,94,75,8.75,JP,1699815391
317,la cocha,-27.7773,-65.5704,22.36,72,100,4.96,AR,1699815392
318,big spring,32.2504,-101.4787,13.46,84,100,0.45,US,1699815392
319,leava,-14.3,-178.1667,28.1,84,73,7.99,WF,1699815392
320,santa elena de uairen,4.6167,-61.1333,26.02,63,100,1.6,VE,1699815392
321,madimba,-10.4,40.3333,25.62,94,75,5.14,TZ,1699815392
322,dryden,49.7833,-92.7503,1.16,93,75,3.6,CA,1699815393
323,qingyuan,23.7,113.0333,17.99,77,41,3.49,CN,1699815393
324,fort mcmurray,56.7268,-111.381,0.77,80,0,3.6,CA,1699815393
325,lastoursville,-0.8143,12.7287,23.51,88,81,0.8,GA,1699815393
326,nemuro,43.3236,145.575,2.99,62,34,3.52,JP,1699815393
327,paragominas,-2.9667,-47.4833,38.54,23,95,2.04,BR,1699815394
328,hotan,37.0997,79.9269,4.54,26,0,0.95,CN,1699815394
329,novokayakent,42.3937,47.9861,15.23,65,68,3.1,RU,1699815394
330,gamba,-2.65,10.0,25.43,85,99,2.13,GA,1699815394
331,arraial do cabo,-22.9661,-42.0278,29.98,74,0,6.17,BR,1699815394
332,cidade velha,14.9167,-23.6167,29.26,39,67,7.2,CV,1699815395
333,conceicao do jacuipe,-12.3167,-38.7667,33.09,30,0,4.8,BR,1699815395
334,al bardiyah,31.7561,25.0865,21.63,77,3,2.7,LY,1699815395
335,vernon,50.2581,-119.2691,6.45,61,100,2.57,CA,1699815290
336,coahuayana de hidalgo,18.7,-103.6583,32.38,56,0,2.68,MX,1699815395
337,irshava,48.3167,23.0385,7.59,86,95,1.62,UA,1699815396
338,al hazm,16.1641,44.7769,24.06,36,79,2.1,YE,1699815396
339,livingstone,-17.8419,25.8543,27.74,21,30,2.07,ZM,1699815396
340,saint-paul,-21.0096,55.2707,22.06,87,22,0.45,RE,1699815396
341,hluti,-27.2167,31.6167,15.77,79,100,3.32,SZ,1699815396
342,san andres,12.5847,-81.7006,31.01,79,20,4.12,CO,1699815397
343,bedarieux,43.6155,3.1571,17.06,79,100,3.33,FR,1699815397
344,darwin,-12.4611,130.8418,26.99,78,100,2.06,AU,1699815397
345,iquique,-20.2208,-70.1431,21.02,73,55,4.66,CL,1699815397
346,kokshetau,53.2775,69.3883,4.01,94,100,3.38,KZ,1699815397
347,nikolayevsk-on-amure,53.1406,140.73,-8.49,92,80,4.59,RU,1699815398
348,morondava,-20.2833,44.2833,25.29,75,0,3.85,MG,1699815398
349,alaghsas,17.0187,8.0168,29.94,10,0,4.63,NE,1699815398
350,magadan,59.5667,150.8,-11.47,68,100,5.06,RU,1699815398
351,karis,60.0718,23.6616,4.23,91,100,4.66,FI,1699815398
352,shahdad kot,27.8477,67.9055,21.4,24,81,0.5,PK,1699815399
353,karachi,24.9056,67.0822,20.9,60,100,3.09,PK,1699815399
354,rosario,-32.9468,-60.6393,23.95,33,0,10.29,AR,1699815289
355,boguchany,58.3814,97.4531,-9.52,94,96,1.34,RU,1699815399
356,ghadamis,30.1337,9.5007,19.58,36,0,2.6,LY,1699815399
357,vadso,70.0744,29.7487,-3.91,80,0,6.17,NO,1699815399
358,ouarzazat,30.9189,-6.8934,24.16,17,0,1.54,MA,1699815400
359,djamaa,33.5339,5.9931,19.35,45,0,2.11,DZ,1699815400
360,kill devil hills,36.0307,-75.676,13.88,73,100,9.77,US,1699815138
361,al ghayzah,16.2079,52.176,27.32,65,0,3.28,YE,1699815400
362,petropavlovsk-kamchatsky,53.0452,158.6483,-3.08,74,75,12.52,RU,1699815400
363,gadzhiyevo,69.2551,33.3362,-7.91,98,90,4.65,RU,1699815400
364,lambarene,-0.7001,10.2406,24.73,92,62,1.18,GA,1699815400
365,sur,22.5667,59.5289,25.94,55,100,1.56,OM,1699815401
366,broken hill,-31.95,141.4333,14.82,37,74,6.05,AU,1699815401
367,carutapera,-1.195,-46.02,29.66,58,6,4.25,BR,1699815401
368,cestos city,5.46,-9.5828,26.51,86,100,3.16,LR,1699815401
369,mount isa,-20.7333,139.5,19.87,88,0,0.0,AU,1699815401
370,mogadishu,2.0371,45.3438,27.99,76,76,3.7,SO,1699815401
371,sharm el-sheikh,27.8518,34.305,28.08,51,40,3.6,EG,1699815391
372,venev,54.3553,38.2684,8.46,77,100,8.81,RU,1699815402
373,hirara,24.8,125.2833,22.15,73,75,11.32,JP,1699815402
374,port macquarie,-31.4333,152.9167,21.61,90,100,8.21,AU,1699815296
375,kabare,-2.4683,28.8242,16.95,96,93,0.36,CD,1699815402
376,braslaw,55.644,27.0455,3.65,96,100,4.3,BY,1699815402
377,carbonear,47.7332,-53.2148,1.46,86,99,4.91,CA,1699815403
378,twin rivers,40.264,-74.4913,9.38,54,100,1.34,US,1699815199
379,as sulayyil,20.4607,45.5779,24.14,37,77,3.79,SA,1699815403
380,vyksa,55.3175,42.1744,7.07,89,100,7.29,RU,1699815403
381,jaynagar-majilpur,22.1758,88.4178,21.64,63,28,3.04,IN,1699815403
382,saint-philippe,-21.3585,55.7679,21.77,81,45,3.19,RE,1699815403
383,novodvinsk,64.4165,40.8122,-3.45,93,18,2.77,RU,1699815403
384,callao,-12.0667,-77.15,22.16,68,75,4.63,PE,1699815404
385,tonghae,37.5439,129.1069,2.27,52,34,4.0,KR,1699815404
386,laojunmiao,39.8333,97.7333,-1.85,46,0,0.49,CN,1699815404
387,markala,13.7021,-6.0659,30.78,9,86,3.1,ML,1699815404
388,recreo,-29.2818,-65.061,26.44,36,100,4.22,AR,1699815404
389,nar'yan-mar,67.6713,53.087,-8.27,94,16,2.68,RU,1699815404
390,gereida,11.2811,25.1414,29.29,47,57,3.68,SD,1699815404
391,port augusta,-32.5,137.7667,15.41,49,100,3.61,AU,1699815405
392,yangliuqing,39.1375,116.9997,-1.03,42,0,2.81,CN,1699815405
393,gebeit,21.0667,36.3167,25.48,64,71,3.47,SD,1699815405
394,ostersund,63.1792,14.6357,-4.1,93,100,2.06,SE,1699815405
395,santa marta,11.2408,-74.199,33.03,74,20,2.06,CO,1699815405
396,wafangdian,39.6183,122.0081,-4.32,63,0,2.9,CN,1699815405
397,chibougamau,49.9168,-74.3659,-5.21,93,100,2.57,CA,1699815406
398,opuwo,-18.0607,13.84,27.18,32,97,5.93,NA,1699815406
399,machico,32.7,-16.7667,21.67,80,75,3.09,PT,1699815406
400,tannum sands,-23.9504,151.3693,21.94,73,75,2.57,AU,1699815406
401,gondar,12.6,37.4667,15.21,76,73,2.17,ET,1699815406
402,geraldton,-28.7667,114.6,19.23,77,0,5.14,AU,1699815406
403,bugene,-1.5911,31.1403,15.7,92,20,1.08,TZ,1699815406
404,mahibadhoo,3.7833,72.9667,27.39,77,77,1.92,MV,1699815407
405,touros,-5.1989,-35.4608,27.85,63,0,7.6,BR,1699815407
406,borkum,53.5809,6.6915,7.97,77,6,5.88,DE,1699815407
407,dunedin,-45.8742,170.5036,13.77,69,100,3.61,NZ,1699815407
408,severnoye,56.3491,78.3619,1.1,98,100,4.47,RU,1699815407
409,lima duarte,-21.8425,-43.7931,34.32,30,90,2.68,BR,1699815407
410,as samawah,31.332,45.2944,25.36,29,100,1.83,IQ,1699815407
411,cambria,35.5641,-121.0808,25.68,60,65,0.89,US,1699815408
412,newman,37.3138,-121.0208,19.47,36,93,3.62,US,1699815408
413,neiafu,-18.65,-173.9833,23.38,94,75,3.6,TO,1699815408
414,kayangel,8.0823,134.7173,28.25,80,78,6.52,PW,1699815408
415,condega,13.365,-86.3985,27.93,68,49,3.9,NI,1699815408
416,kailua-kona,19.6406,-155.9956,26.95,77,20,3.09,US,1699815408
417,band,46.5833,24.3833,0.66,93,20,0.51,RO,1699815408
418,codrington,-38.2667,141.9667,10.5,77,82,2.76,AU,1699815409
419,ola,59.5833,151.2833,-10.64,67,100,7.09,RU,1699815409
420,fort st. john,56.2499,-120.8529,1.94,60,20,5.66,CA,1699815379
421,hoima,1.4356,31.3436,20.02,84,14,0.79,UG,1699815410
422,arkhangel'sk,64.5401,40.5433,-3.26,93,17,2.72,RU,1699815411
423,georgiyevka,43.0369,74.7114,6.02,93,75,4.0,KZ,1699815411
424,zdunska wola,51.5992,18.9397,5.18,99,97,4.24,PL,1699815411
425,eyl,7.9803,49.8164,27.53,79,100,7.92,SO,1699815411
426,sao joao batista,-27.2761,-48.8494,33.06,89,41,2.67,BR,1699815411
427,pangoa,-12.1167,-73.0,27.75,75,64,0.8,PE,1699815412
428,heroica guaymas,27.9333,-110.9,28.82,26,0,2.21,MX,1699815412
429,barkhan,29.8977,69.5256,15.16,34,18,0.8,PK,1699815412
430,puerto cabezas,14.0351,-83.3888,27.99,88,88,5.01,NI,1699815412
431,sinabang,2.4803,96.3801,26.06,87,100,2.32,ID,1699815412
432,okakarara,-20.5833,17.4333,24.07,40,45,4.86,NA,1699815412
433,kingston,17.997,-76.7936,33.53,68,40,9.77,JM,1699815278
434,yongchuan,29.3514,105.8947,10.9,86,100,2.17,CN,1699815413
435,villa maria grande,-31.6656,-59.9018,19.77,87,100,3.86,AR,1699815413
436,abatskoye,56.2875,70.4555,3.83,96,100,2.59,RU,1699815413
437,port moresby,-9.4431,147.1797,20.68,94,75,2.57,PG,1699815413
438,colonia,50.9333,6.95,7.76,85,20,2.06,DE,1699815250
439,vilyuysk,63.7553,121.6247,-20.24,99,42,2.16,RU,1699815414
440,gunnison,38.7,-107.0673,6.06,23,0,1.2,US,1699815414
441,vuktyl,63.8567,57.3094,-3.83,98,100,1.34,RU,1699815414
442,kavieng,-2.5744,150.7967,27.18,72,100,3.11,PG,1699815414
443,el bauga,18.262,33.9081,32.09,24,100,3.69,SD,1699815414
444,kathu,7.9178,98.3332,29.27,78,92,2.96,TH,1699815415
445,al qubbah,32.7616,22.2424,16.11,91,100,2.84,LY,1699815415
446,kavaratti,10.5669,72.642,27.74,75,96,2.18,IN,1699815415
447,virac,13.6333,124.2167,22.62,89,100,2.8,PH,1699815316
448,cabedelo,-6.9811,-34.8339,30.37,64,0,6.42,BR,1699815415
449,mariental,-24.6333,17.9667,28.44,17,18,5.59,NA,1699815415
450,taunggyi,20.7833,97.0333,15.46,95,100,0.56,MM,1699815415
451,calliope,-24.0,151.2,21.91,73,75,2.57,AU,1699815416
452,mo i rana,66.3128,14.1428,-4.74,63,0,2.06,NO,1699815416
453,alofi,-19.0595,-169.9187,22.94,94,100,5.14,NU,1699815416
454,sona,45.4388,10.8255,8.69,87,0,1.54,IT,1699815416
455,choma,-16.8065,26.9531,23.42,30,9,2.38,ZM,1699815416
456,adi keyh,14.8444,39.3772,15.59,60,14,1.98,ER,1699815416
457,guerrero negro,27.9769,-114.0611,25.06,21,0,1.82,MX,1699815417
458,kone,-21.0595,164.8658,19.13,77,24,1.6,NC,1699815417
459,mount juliet,36.2001,-86.5186,20.27,40,40,1.54,US,1699815417
460,afaahiti,-17.75,-149.2833,27.93,82,7,3.39,PF,1699815417
461,revda,56.801,59.9303,-0.13,90,24,3.0,RU,1699815417
462,lethem,3.3803,-59.7968,34.05,42,95,6.57,GY,1699815417
463,boundiali,9.5217,-6.4869,29.87,41,94,1.31,CI,1699815417
464,mlimba,-8.8,35.8167,24.64,85,94,4.14,TZ,1699815418
465,plouzane,48.3833,-4.6167,13.03,94,100,7.72,FR,1699815418
466,den helder,52.9599,4.7593,7.21,96,100,4.63,NL,1699815418
467,santa luzia,-19.7697,-43.8514,38.21,21,20,1.54,BR,1699815418
468,ouesso,1.6136,16.0517,22.61,95,59,0.94,CG,1699815418
469,kurumkan,54.3,110.3,-8.82,84,14,0.45,RU,1699815418
470,valparaiso,-33.0393,-71.6273,18.33,68,75,3.6,CL,1699815418
471,sittwe,20.15,92.9,24.44,78,63,2.32,MM,1699815419
472,pisco,-13.7,-76.2167,22.79,73,0,4.63,PE,1699815419
473,nguigmi,14.2495,13.1092,28.64,19,5,4.78,NE,1699815419
474,paphos,34.7667,32.4167,19.88,73,34,3.09,CY,1699815203
475,vanimo,-2.6741,141.3028,25.18,91,95,2.1,PG,1699815419
476,chifeng,42.2683,118.9636,-8.65,76,0,2.87,CN,1699815419
477,constitucion,-35.3333,-72.4167,14.28,48,0,8.7,CL,1699815419
478,nyala,12.05,24.8833,28.62,40,38,3.0,SD,1699815420
479,berdigestyakh,62.0989,126.6992,-14.18,92,100,4.93,RU,1699815420
480,tromso,69.6496,18.957,-1.99,54,0,6.17,NO,1699815420
481,shalqar,47.8333,59.6,5.33,77,11,1.39,KZ,1699815420
482,sao felix do xingu,-6.6447,-51.995,36.77,27,100,1.94,BR,1699815257
483,labytnangi,66.6572,66.4183,-12.1,90,8,3.65,RU,1699815421
484,haiku-pauwela,20.9219,-156.3051,26.13,65,20,7.72,US,1699815421
485,pariaman,-0.619,100.12,25.03,88,100,1.33,ID,1699815421
486,thatta,24.7475,67.9235,24.17,31,96,2.57,PK,1699815421
487,salym,60.0625,71.4789,-0.52,96,100,2.67,RU,1699815421
488,morristown,36.214,-83.2949,19.65,34,0,2.06,US,1699815279
489,saint-joseph,-21.3667,55.6167,21.21,80,24,3.02,RE,1699815421
490,pandan,14.0453,124.1694,27.1,86,99,5.81,PH,1699815422
491,kupang,-10.1667,123.5833,27.32,89,8,1.54,ID,1699815422
492,tindouf,27.6711,-8.1474,29.25,20,0,2.57,DZ,1699815422
493,ivanteyevka,55.9711,37.9208,7.81,95,100,2.24,RU,1699815422
494,veraval,20.9,70.3667,26.89,36,100,3.43,IN,1699815422
495,santo antonio,-6.3106,-35.4789,30.58,39,0,7.81,BR,1699815423
496,masindi,1.6744,31.715,19.35,89,73,0.82,UG,1699815423
497,esil,51.9556,66.4042,2.73,95,40,3.16,KZ,1699815423
498,gao,16.6362,1.637,28.3,9,0,4.94,ML,1699815423
499,robertsport,6.7533,-11.3686,27.22,83,82,4.66,LR,1699815424
500,berberati,4.2612,15.7922,21.1,97,97,0.73,CF,1699815424
501,treillieres,47.3333,-1.6333,14.84,96,100,1.34,FR,1699815424
502,linton,39.0348,-87.1658,16.89,32,0,2.65,US,1699815424
503,lerwick,60.1545,-1.1494,8.0,77,23,5.37,GB,1699815425
504,kishangarh,26.5667,74.8667,18.14,44,3,2.78,IN,1699815425
505,wacheng,33.7833,114.5167,3.76,47,100,1.63,CN,1699815425
506,natal,-5.795,-35.2094,29.36,61,20,8.75,BR,1699815425
507,anloga,5.7947,0.8973,28.18,79,0,4.64,GH,1699815425
508,faya-largeau,17.9257,19.1043,28.56,22,4,5.78,TD,1699815426
509,tucuma,-0.1833,-50.05,31.95,48,9,4.82,BR,1699815426
510,betio village,1.358,172.9211,28.02,81,100,4.18,KI,1699815426
511,regeneracao,-6.2378,-42.6883,39.37,18,1,3.09,BR,1699815426
512,al mijlad,11.0333,27.7333,32.73,35,45,4.71,SD,1699815427
513,rio grande,-32.035,-52.0986,16.06,85,100,0.9,BR,1699815427
514,lagunillas,10.1301,-71.2595,30.86,69,100,2.24,VE,1699815427
515,shingu,33.7333,135.9833,10.79,69,82,10.01,JP,1699815427
516,mossel bay,-34.1831,22.146,15.96,74,0,0.54,ZA,1699815427
517,turpan,42.9333,89.1667,6.16,31,14,0.4,CN,1699815428
518,grand rapids,42.9634,-85.6681,12.09,51,75,5.14,US,1699815428
519,urangan,-25.3,152.9,20.82,69,81,2.89,AU,1699815428
520,sovetskiy,61.3614,63.5842,-2.28,97,89,2.24,RU,1699815428
521,las lomas,8.4333,-82.4,30.67,80,40,2.06,PA,1699815429
522,kanniyakumari,8.0833,77.5667,27.11,73,84,5.41,IN,1699815429
523,colonia nicolich,-34.8131,-56.0447,21.06,60,75,8.75,UY,1699815429
524,springbok,-29.6643,17.8865,19.17,26,0,4.4,ZA,1699815430
525,kachug,53.9606,105.8817,-13.27,96,100,0.2,RU,1699815430
526,nizhnesortymskiy,62.4397,71.7603,-3.13,95,98,5.46,RU,1699815430
527,flin flon,54.7682,-101.865,-0.09,100,100,2.57,CA,1699815430
528,amol,36.4696,52.3507,17.88,64,100,1.74,IR,1699815430
529,hovd,48.0056,91.6419,-5.48,92,95,0.42,MN,1699815430
530,howrah,22.5892,88.3103,23.0,83,11,2.06,IN,1699815431
531,zyryanskoye,56.8306,86.6258,0.85,97,100,2.94,RU,1699815431
532,bubaque,11.2833,-15.8333,28.42,69,14,4.15,GW,1699815431
533,fada,9.5667,8.3,24.03,42,16,0.64,NG,1699815431
534,bandundu,-3.3167,17.3667,21.83,96,96,1.5,CD,1699815432
535,acarau,-2.8856,-40.12,29.25,60,0,8.23,BR,1699815433
536,aykhal,66.0,111.5,-12.2,86,100,3.15,RU,1699815434
537,galliano,29.4422,-90.2992,21.0,88,100,3.09,US,1699815434
538,pacific grove,36.6177,-121.9166,23.14,63,0,4.92,US,1699815301
539,ambon,-3.6954,128.1814,26.16,14,40,1.54,ID,1699815435
540,moranbah,-22.0016,148.0466,18.19,87,0,3.04,AU,1699815157
541,laascaanood,8.4774,47.3597,26.3,64,65,6.78,SO,1699815435
542,lata,40.1629,-8.3327,18.37,96,100,1.54,PT,1699815435
543,riviera beach,26.7753,-80.0581,30.59,70,75,3.6,US,1699815436
544,aral,40.5156,81.2636,5.38,32,0,2.3,CN,1699815436
545,icano,-28.9193,-65.3282,22.99,58,100,2.37,AR,1699815436
546,phumi veal sre,10.9808,104.7783,25.28,89,86,2.39,KH,1699815436
547,kenai,60.5544,-151.2583,-13.95,85,0,2.06,US,1699815437
548,biltine,14.5333,20.9167,31.21,20,91,3.77,TD,1699815437
549,sierra vista southeast,31.4539,-110.2164,19.5,46,0,2.24,US,1699815437
550,cooper's town,26.8667,-77.5167,25.78,66,100,3.32,BS,1699815437
551,kievka,50.2619,71.5514,3.47,90,100,5.22,KZ,1699815437
552,usinsk,65.9939,57.5281,-11.07,97,30,2.68,RU,1699815398
553,calingasta,-31.3308,-69.4078,28.01,7,0,15.55,AR,1699815438
554,pudozh,61.8099,36.5345,2.75,98,100,2.68,RU,1699815438
555,rio gallegos,-51.6226,-69.2181,16.03,27,0,6.17,AR,1699815438
556,binji,13.2228,4.9096,28.99,16,80,4.74,NG,1699815438
557,pont-rouge,46.7566,-71.6978,2.55,48,7,2.57,CA,1699815438
558,turkmenabat,39.0733,63.5786,7.99,46,0,4.12,TM,1699815439
559,nyurba,63.2842,118.3319,-21.48,100,98,1.3,RU,1699815439
560,yamada,39.4667,141.95,5.26,79,100,2.73,JP,1699815439
561,tavda,58.0425,65.2726,0.94,95,19,1.79,RU,1699815439
562,phatthalung,7.5,100.0833,25.2,90,71,1.54,TH,1699815439
563,zhangjiakou,40.81,114.8794,-6.71,55,0,2.3,CN,1699815440
564,christchurch,-43.5333,172.6333,16.29,76,13,0.89,NZ,1699815440
565,ciudad de armeria,18.9333,-103.9667,32.52,55,3,3.07,MX,1699815440
566,saint-pierre,-21.3393,55.4781,21.82,78,0,3.09,RE,1699815440
567,pokachi,61.7198,75.3683,-0.97,96,100,3.85,RU,1699815440
568,lubao,14.9167,120.55,26.84,82,98,1.72,PH,1699815441
569,makoua,0.0069,15.6333,22.94,97,100,1.28,CG,1699815441
570,le lavandou,43.137,6.366,18.9,51,0,7.2,FR,1699815441
571,hobyo,5.3505,48.5268,27.09,83,100,4.92,SO,1699815441
572,red hill,33.9996,-79.2581,14.49,79,100,4.86,US,1699815441
573,bahir dar,11.5936,37.3908,17.14,84,100,0.97,ET,1699815442
574,gaigeturi,33.4644,126.3183,7.03,76,100,6.17,KR,1699815442
575,el calafate,-50.3408,-72.2768,9.88,59,86,4.45,AR,1699815442
576,nogliki,51.8333,143.1667,-8.14,61,88,7.15,RU,1699815442
577,jalai nur,49.45,117.7,-11.93,90,10,2.55,CN,1699815442
578,mandawar,29.5,78.1333,16.8,49,0,2.0,IN,1699815443
579,olinda,-8.0089,-34.8553,28.85,58,40,4.63,BR,1699815443
580,belle fourche,44.6714,-103.8522,16.39,21,0,5.66,US,1699815443
581,el jadid,33.2549,-8.506,19.78,79,100,7.84,MA,1699815443
582,cartagena del chaira,1.3349,-74.8429,29.32,75,65,0.69,CO,1699815443
583,mata-utu,-13.2816,-176.1745,28.59,76,22,7.04,WF,1699815444
584,basco,20.4487,121.9702,26.2,81,88,12.24,PH,1699815444
585,tsiombe,-25.3,45.4833,22.28,75,0,1.87,MG,1699815444
586,altena,51.3,7.6667,6.23,92,100,1.98,DE,1699815444
587,menongue,-14.6585,17.691,21.65,65,91,4.46,AO,1699815444
